City,Cloudiness,Country,Date,Humidity,Lat,Lng,Max Temp,Wind Speed
Vila Franca do Campo,40,PT,1554176267,76,37.72,-25.43,55.4,17.22
Lam Luk Ka,20,TH,1554176443,70,13.93,100.75,91.0,4.7
Tazovskiy,76,RU,1554176455,96,67.47,78.7,26.08,9.78
Broken Hill,0,AU,1554174000,29,-31.97,141.45,75.2,6.93
Kavieng,44,PG,1554176388,100,-2.57,150.8,83.32,8.43
Dingle,76,PH,1554176459,82,11.0,122.67,78.46,12.8
Puerto Ayora,32,EC,1554175836,93,-0.74,-90.35,78.01,5.41
Padang,20,ID,1554172200,66,-0.92,100.36,86.0,2.24
Havre,75,US,1554175893,64,48.55,-109.68,39.2,6.93
Lorengau,56,PG,1554176447,94,-2.02,147.27,84.31,12.46
Cape Town,0,ZA,1554176179,66,-33.93,18.42,59.0,6.93
Lasa,20,CY,1554174000,87,34.92,32.53,50.0,1.12
Marsh Harbour,24,BS,1554176468,100,26.54,-77.06,75.85,8.55
Araouane,0,ML,1554176028,32,18.9,-3.53,77.83,11.9
Guerrero Negro,0,MX,1554176470,49,27.97,-114.04,64.24,6.64
Belmonte,24,PT,1554175847,93,40.36,-7.35,44.01,1.99
Hobyo,0,SO,1554176381,90,5.35,48.53,77.29,8.66
Saskylakh,20,RU,1554176409,90,71.97,114.09,25.81,10.67
San Carlos de Bariloche,75,AR,1554174000,76,-41.13,-71.31,57.2,20.8
Port Elizabeth,1,US,1554176255,68,39.31,-74.98,39.0,1.39
Bredasdorp,68,ZA,1554175891,86,-34.53,20.04,55.0,11.9
Nyurba,44,RU,1554176477,53,63.29,118.35,35.89,7.54
Cayhagan,24,PH,1554176480,84,9.67,122.43,83.14,6.76
Hobart,75,AU,1554175879,37,-42.88,147.33,68.0,4.7
Ribeira Grande,48,PT,1554176454,100,38.52,-28.7,59.47,22.19
Bluff,0,AU,1554176446,44,-23.58,149.07,83.86,12.24
Walvis Bay,0,NA,1554174132,82,-22.95,14.51,59.0,6.93
New Norfolk,75,AU,1554175879,37,-42.78,147.06,68.0,4.7
Butaritari,68,KI,1554176423,100,3.07,172.79,81.97,9.22
Weihe,92,CN,1554176488,73,32.99,105.33,52.63,2.62
Saint-Philippe,1,CA,1554176313,77,45.36,-73.48,33.01,17.22
Punta Arenas,90,CL,1554175946,93,-53.16,-70.91,50.0,3.36
Potsdam,0,DE,1554176462,55,52.4,13.06,39.99,12.75
Cuamba,32,MZ,1554176493,85,-14.8,36.54,60.46,2.84
Ushuaia,40,AR,1554174000,87,-54.81,-68.31,50.0,8.05
Mataura,92,NZ,1554175807,68,-46.19,168.86,55.99,7.0
Rikitea,0,PF,1554176249,100,-23.12,-134.97,76.12,16.71
Jamestown,0,AU,1554176263,57,-33.21,138.6,70.99,5.08
Saint George,0,GR,1554175999,70,39.45,22.34,52.0,4.7
Mantua,0,IT,1554176464,61,45.16,10.79,57.99,3.36
Bambous Virieux,40,MU,1554176341,94,-20.34,57.76,79.0,3.36
Tuatapere,92,NZ,1554176404,70,-46.13,167.69,55.99,7.0
Barrow,80,AR,1554176242,72,-38.31,-60.23,72.07,12.46
Laguna,8,MX,1554176391,33,27.52,-110.01,71.17,2.73
Leningradskiy,44,RU,1554175998,99,69.38,178.42,20.77,11.9
Kodiak,1,US,1554176327,26,39.95,-94.76,48.2,11.41
San Rafael,0,AR,1554175947,66,-34.61,-68.33,61.0,5.41
Haines Junction,0,CA,1554176510,48,60.75,-137.51,41.92,2.06
Dikson,76,RU,1554176231,97,73.51,80.55,25.81,25.21
Hermanus,0,ZA,1554175891,86,-34.42,19.24,55.99,5.86
Tuktoyaktuk,40,CA,1554174000,84,69.44,-133.03,5.0,9.17
Iqaluit,40,CA,1554175922,59,63.75,-68.52,-0.01,12.75
Kibala,20,TD,1554174000,51,9.11,18.35,84.2,4.7
Upernavik,48,GL,1554176321,100,72.79,-56.15,13.93,6.42
Provideniya,90,RU,1554174000,100,64.42,-173.23,32.0,8.95
Avarua,12,CK,1554174000,74,-21.21,-159.78,80.6,13.87
Tessalit,0,ML,1554176521,30,20.2,1.01,71.98,9.78
Howard Springs,0,AU,1554176434,43,-12.5,131.05,91.0,9.17
Busselton,0,AU,1554176237,31,-33.64,115.35,75.99,5.53
Sakaiminato,75,JP,1554175997,66,35.55,133.23,51.8,14.99
Kruisfontein,88,ZA,1554176526,93,-34.0,24.73,56.5,4.41
Quatre Cocos,40,MU,1554176341,94,-20.21,57.76,79.0,3.36
Touros,40,BR,1554174000,100,-5.2,-35.46,73.4,5.82
Clyde River,90,CA,1554174000,84,70.47,-68.59,-0.41,9.17
Carutapera,92,BR,1554176105,97,-1.2,-46.02,76.3,3.85
Shache,36,CN,1554176532,38,38.42,77.24,55.33,5.41
Waddan,0,LY,1554176533,62,29.16,16.14,58.03,11.01
Cayenne,40,GF,1554174000,88,4.94,-52.33,78.8,4.7
Thompson,90,CA,1554174660,92,55.74,-97.86,24.8,17.22
Umarga,0,IN,1554176537,54,17.84,76.62,76.03,0.72
Lebu,75,ET,1554174000,77,8.96,38.73,59.0,4.7
Sao Joao da Barra,12,BR,1554176539,100,-21.64,-41.05,77.29,10.22
Hithadhoo,64,MV,1554176380,100,-0.6,73.08,82.33,8.43
Svetlogorsk,20,RU,1554174000,69,53.14,59.15,35.6,6.71
Arraial do Cabo,68,BR,1554176391,100,-22.97,-42.02,73.06,4.41
Gulariya,0,IN,1554176544,37,28.2,81.35,74.86,3.4
Albany,1,US,1554176105,39,42.65,-73.75,30.99,3.36
Conakry,75,GN,1554174000,100,9.52,-13.7,75.2,8.1
Presidencia Roque Saenz Pena,88,AR,1554176548,95,-26.79,-60.44,71.53,9.78
Te Anau,80,NZ,1554176474,66,-45.41,167.72,50.38,3.51
Pokhara,0,NP,1554176550,80,28.21,83.99,58.66,0.94
Kendari,48,ID,1554176441,91,-3.99,122.52,83.14,3.74
Vaini,0,IN,1554174000,41,15.34,74.49,78.8,3.62
Alofi,40,NU,1554174000,69,-19.06,-169.92,80.6,12.75
Deputatskiy,0,RU,1554176325,77,69.3,139.9,16.27,7.54
Waipawa,92,NZ,1554175337,77,-39.94,176.59,57.0,1.01
Velen,0,DE,1554176533,65,51.9,6.98,48.2,4.7
Viedma,32,AR,1554176559,58,-40.81,-62.99,75.31,14.03
Qaanaaq,0,GL,1554176357,72,77.48,-69.36,-6.87,6.31
Ixtapa,5,MX,1554175823,83,20.71,-105.21,75.99,2.06
Kaeo,68,NZ,1554176285,62,-35.1,173.78,72.0,7.0
Port Hedland,0,AU,1554174000,55,-20.31,118.58,89.6,9.17
Mehamn,75,NO,1554173400,68,71.03,27.85,30.2,16.11
San Lazaro,5,BZ,1554172800,69,18.04,-88.66,80.6,17.22
Kapaa,90,US,1554176001,73,22.08,-159.32,75.2,11.41
Tiksi,32,RU,1554176476,81,71.64,128.87,21.49,3.85
Codrington,75,AU,1554176167,94,-28.95,153.24,68.0,8.05
Kasongo-Lunda,36,CD,1554176571,96,-6.48,16.82,67.57,1.72
Mengcheng,64,CN,1554176572,58,33.26,116.57,65.77,9.22
Evensk,12,RU,1554176284,80,61.92,159.24,35.53,8.77
Piracuruca,92,BR,1554176574,98,-3.93,-41.72,72.34,7.54
Gorin,1,US,1554174900,59,40.36,-92.02,46.4,11.41
Vostok,44,RU,1554176294,53,46.45,135.83,29.14,4.41
Sola,75,NO,1554176419,64,58.89,5.65,41.0,19.46
Bethel,75,US,1554173760,61,60.79,-161.76,48.2,9.17
Prince Rupert,1,CA,1554174000,29,54.32,-130.32,60.8,6.93
Belem de Sao Francisco,88,BR,1554176582,76,-8.75,-38.97,77.11,6.42
Georgetown,0,GY,1554174000,94,6.8,-58.16,73.4,4.7
Gwanda,0,ZW,1554176584,69,-20.94,29.0,60.64,9.33
Port Alfred,92,ZA,1554176100,94,-33.59,26.89,57.0,1.01
Ketchikan,1,US,1554173760,53,55.34,-131.65,57.2,14.99
Zeya,0,RU,1554176588,46,53.74,127.27,33.91,4.07
Los Llanos de Aridane,92,ES,1554176403,77,28.66,-17.92,59.0,10.29
Tura,12,IN,1554176396,91,25.52,90.21,70.09,3.96
Aykhal,80,RU,1554176587,88,65.95,111.51,33.37,7.31
Mahebourg,40,MU,1554176041,94,-20.41,57.7,78.01,3.36
Oil City,1,US,1554176536,58,41.43,-79.71,30.2,5.82
Meadow Lake,80,CA,1554176595,77,54.13,-108.44,31.93,8.77
Leopold,1,US,1554176491,69,38.1,-86.58,41.0,4.85
College,1,US,1554176449,45,64.86,-147.8,51.8,5.82
Hilo,90,US,1554176115,69,19.71,-155.08,78.8,5.82
Muttupet,0,IN,1554176600,82,10.4,79.48,85.48,3.29
Saint-Pierre,0,FR,1554176525,66,48.95,4.24,51.8,9.17
Rio Grande,20,BR,1554176603,93,-32.03,-52.1,69.91,9.22
Pangnirtung,8,CA,1554176552,58,66.15,-65.72,-6.78,3.18
Nikolskoye,0,RU,1554176136,82,59.7,30.79,34.0,11.18
Saint-Francois,0,FR,1554174000,70,46.42,3.91,42.8,4.7
Torbay,90,CA,1554176004,77,47.66,-52.73,36.0,33.33
Banda Aceh,36,ID,1554176353,83,5.56,95.32,83.32,1.95
Tsaratanana,24,MG,1554176611,95,-16.8,47.65,69.37,3.96
East London,90,ZA,1554174000,76,-33.02,27.91,57.2,5.82
La Rioja,36,AR,1554176362,86,-29.41,-66.86,70.36,2.95
Goya,44,AR,1554176614,90,-29.14,-59.27,72.52,4.63
Chamba,0,IN,1554176615,36,32.56,76.12,54.97,2.17
Meulaboh,24,ID,1554176617,100,4.14,96.13,81.07,3.18
Ahuimanu,40,US,1554176583,73,21.44,-157.84,78.8,5.82
Vanavara,80,RU,1554176619,66,60.35,102.28,33.01,10.67
Atar,12,MR,1554176620,60,20.52,-13.05,56.59,3.74
Pisco,75,PE,1554174000,83,-13.71,-76.2,69.8,4.7
Moyale,0,ET,1554176623,78,3.52,39.05,63.34,2.73
Sao Filipe,0,CV,1554176440,100,14.9,-24.5,69.73,11.68
Karasburg,0,NA,1554176625,29,-28.01,18.75,53.71,5.53
Yarmouth,0,GB,1554176589,100,50.71,-1.5,43.0,2.24
Teguldet,48,RU,1554176628,72,57.31,88.17,34.18,8.66
Atuona,8,PF,1554176246,100,-9.8,-139.03,82.51,9.89
Bodrum,20,TR,1554175200,71,37.04,27.43,53.6,2.24
Bandarbeyla,92,SO,1554176632,100,9.49,50.81,77.74,4.63
Ilulissat,24,GL,1554173400,51,69.22,-51.1,12.2,12.75
Hasaki,20,JP,1554176376,27,35.73,140.83,55.0,16.11
Mareeba,48,AU,1554176173,86,-16.99,145.42,77.0,1.99
Imbituba,0,BR,1554174000,94,-28.24,-48.67,69.8,13.24
Mananjary,8,MG,1554176638,91,-19.16,46.8,54.52,2.95
Aras,0,YE,1554176639,79,14.28,44.38,41.47,0.72
Taoudenni,0,ML,1554176331,43,22.68,-3.98,57.31,2.84
Karratha,0,AU,1554176429,35,-20.74,116.85,97.72,7.65
Luderitz,0,NA,1554176252,80,-26.65,15.16,57.76,15.48
Geraldton,90,CA,1554174000,58,49.72,-86.95,28.4,6.93
Zhucheng,40,CN,1554174000,87,30.85,114.8,53.6,2.24
Karoi,0,ZW,1554176646,66,-16.82,29.68,64.42,9.44
Bibiani,24,GH,1554176647,91,6.45,-2.31,76.03,5.41
Natal,75,BR,1554174000,88,-5.81,-35.21,75.2,3.36
Changtu,0,CN,1554176650,69,42.78,124.11,44.35,6.2
Naushahro Firoz,0,PK,1554176651,28,26.84,68.12,80.44,2.73
Talnakh,68,RU,1554176329,93,69.49,88.39,22.21,10.78
Strezhevoy,75,RU,1554174000,93,60.73,77.6,35.6,15.66
Kinsale,20,IE,1554175800,86,51.71,-8.52,37.4,16.11
Hamilton,90,BM,1554175865,88,32.3,-64.78,64.4,19.46
Chernihiv,0,UA,1554176657,73,51.49,31.29,28.78,9.22
Flinders,40,AU,1554176539,56,-34.58,150.85,72.0,12.75
Tyrma,0,RU,1554176660,55,50.04,132.17,34.09,5.19
Cherskiy,76,RU,1554176366,73,68.75,161.3,31.57,6.31
Ranau,75,MY,1554176417,70,5.95,116.67,89.01,8.05
Westport,92,IE,1554175984,88,53.8,-9.52,39.99,5.01
Khatanga,88,RU,1554176386,100,71.98,102.47,31.03,11.12
Souillac,90,FR,1554176447,93,45.6,-0.6,55.0,4.7
Marsa Matruh,56,EG,1554176657,89,31.35,27.25,48.31,6.2
Ponta do Sol,0,BR,1554176419,92,-20.63,-46.0,63.88,3.4
Leh,20,IN,1554176670,82,34.16,77.58,-1.56,1.61
Anloga,20,GH,1554174000,88,5.79,0.9,82.4,5.82
Middletown,1,US,1554176672,43,41.55,-71.29,35.6,5.82
Port Hardy,20,CA,1554174000,70,50.7,-127.42,48.2,2.24
Plouzane,0,FR,1554176585,81,48.38,-4.62,48.99,11.41
Tecoanapa,5,MX,1554173220,69,16.99,-99.26,80.6,8.05
Pastavy,0,BY,1554176678,68,55.11,26.84,20.77,2.95
Noumea,20,NC,1554174000,62,-22.28,166.46,86.0,14.99
Tasiilaq,76,GL,1554173400,62,65.61,-37.64,24.8,4.7
Yumen,24,CN,1554176681,40,40.29,97.04,54.43,5.64
Clinton,75,US,1554176400,61,41.84,-90.19,48.2,14.99
Vila Velha,88,BR,1554176048,100,-3.71,-38.6,77.0,1.01
Palmer,0,AU,1554176151,31,-34.85,139.16,81.0,10.29
Poum,0,MK,1554174000,64,41.28,20.71,33.8,3.36
Ginir,24,ET,1554176092,77,7.14,40.71,54.61,2.62
Shieli,12,KZ,1554176688,83,44.18,66.74,43.45,11.56
Brae,88,GB,1554175200,86,60.4,-1.35,42.8,11.41
San Patricio,48,PY,1554176358,80,-26.98,-56.83,74.23,3.06
Ilhabela,32,BR,1554176534,99,-23.78,-45.36,75.49,10.33
Ajdabiya,24,LY,1554176693,42,30.75,20.22,59.29,13.69
Kashary,92,RU,1554176695,84,49.04,41.01,39.13,16.04
Tamiahua,88,MX,1554176399,100,21.28,-97.45,66.04,14.14
Henties Bay,0,NA,1554174132,88,-22.12,14.28,59.0,3.0
Tocopilla,56,CL,1554176516,100,-22.09,-70.2,60.37,2.95
Nagato,40,JP,1554175712,44,34.35,131.14,57.2,14.99
Tashara,20,RU,1554176701,87,55.52,83.51,32.56,11.23
Kilifi,20,KE,1554174000,88,-3.63,39.85,80.6,4.7
Alice Town,0,BS,1554176703,98,25.72,-79.3,76.84,10.22
Hyderabad,40,IN,1554175869,40,17.36,78.47,89.6,6.93
Soe,20,EE,1554176417,92,57.91,26.05,28.4,10.29
Linqiong,75,CN,1554174000,87,30.42,103.46,57.2,4.47
Catia La Mar,75,VE,1554175844,88,10.6,-67.03,75.2,16.04
Berlevag,75,NO,1554173400,68,70.86,29.09,30.2,16.11
Hokitika,24,NZ,1554176711,91,-42.72,170.96,60.64,1.39
Port Macquarie,40,AU,1554176105,93,-31.43,152.91,73.99,5.82
Yellowknife,20,CA,1554176139,61,62.45,-114.38,15.8,14.99
Tiarei,75,PF,1554176541,70,-17.53,-149.33,87.8,10.29
North Bend,90,US,1554176131,93,43.41,-124.22,54.0,2.84
Halifax,20,CA,1554176467,50,44.65,-63.58,30.99,21.92
Bambanglipuro,64,ID,1554176718,100,-7.95,110.28,77.11,4.07
Sabang,0,PH,1554176596,71,13.72,123.58,84.04,10.78
Gulmarg,0,IN,1554176720,78,34.05,74.39,37.51,2.73
Ozerne,0,UA,1554176722,71,50.18,28.74,29.23,7.76
Yeppoon,75,AU,1554174000,48,-23.13,150.74,82.4,12.75
Serov,0,RU,1554176724,72,59.61,60.57,27.61,5.97
Kaoma,0,ZM,1554176725,61,-14.8,24.8,61.54,5.19
Puerto Quijarro,44,BO,1554176727,90,-19.0,-57.72,76.3,2.28
Nouadhibou,0,MR,1554174000,82,20.93,-17.03,64.4,6.93
Myitkyina,0,MM,1554176729,75,25.38,97.4,72.43,4.63
Gayeri,8,BF,1554176731,67,12.65,0.49,78.37,2.84
Businga,64,CD,1554176732,95,3.34,20.89,72.07,2.28
Beringovskiy,88,RU,1554176537,100,63.05,179.32,31.57,12.35
Hun,44,BE,1554176687,66,50.34,4.87,51.8,5.82
Namibe,0,AO,1554176734,100,-15.19,12.15,79.27,9.22
Longyearbyen,20,NO,1554173400,65,78.22,15.63,8.6,8.05
Bitung,40,ID,1554174000,66,1.44,125.19,87.8,4.7
Natchitoches,1,US,1554176446,93,31.76,-93.09,41.0,3.36
Husavik,24,CA,1554176403,81,50.56,-96.99,35.01,3.0
Aranos,0,NA,1554176742,58,-24.14,19.11,67.39,7.65
Huarmey,48,PE,1554176743,84,-10.07,-78.15,66.22,3.4
Lata,0,IN,1554176744,52,30.78,78.62,50.29,2.17
Mar del Plata,0,AR,1554176121,54,-46.43,-67.52,65.32,27.0
Nyzy,0,UA,1554176747,66,50.78,34.78,29.77,12.01
Namtsy,0,RU,1554174000,54,62.72,129.66,30.2,2.24
Sitka,0,US,1554176613,57,37.17,-99.65,46.24,6.98
Manado,40,ID,1554174000,66,1.49,124.85,87.8,4.7
Edd,8,ER,1554176751,90,13.93,41.69,67.03,0.94
Rome,0,IT,1554176464,70,41.89,12.48,54.0,2.24
Roald,64,NO,1554176735,51,62.58,6.12,39.2,9.17
Esperance,20,TT,1554176107,83,10.24,-61.45,77.0,4.7
Omsukchan,88,RU,1554176757,85,62.53,155.8,29.59,5.64
Aksu,0,KZ,1554174000,71,52.04,76.93,44.6,6.71
Sri Aman,75,MY,1554174000,70,1.24,111.46,86.0,3.36
Yenagoa,68,NG,1554176760,91,4.92,6.26,78.19,8.21
Supe,44,PE,1554176762,96,-10.8,-77.72,66.76,11.45
Luanda,20,AO,1554176763,97,-8.83,13.24,80.62,8.21
Wollongong,75,AU,1554176763,68,-34.42,150.89,73.99,4.7
Khilok,44,RU,1554176766,29,51.36,110.46,45.97,6.53
Narsaq,92,GL,1554176566,84,60.91,-46.05,23.38,4.29
Hvide Sande,20,DK,1554176464,74,56.01,8.13,37.4,10.29
Tenenkou,0,ML,1554176769,70,14.46,-4.91,77.74,1.61
Mocuba,0,MZ,1554176770,87,-16.84,36.99,60.91,2.95
Cerrito,75,CO,1554174000,100,6.84,-72.7,69.8,3.36
Isangel,75,VU,1554174000,66,-19.55,169.27,86.0,9.17
Ouro Preto do Oeste,20,BR,1554176774,85,-10.75,-62.22,77.29,2.17
Puerto Escondido,5,MX,1554172800,74,15.86,-97.07,80.6,6.2
Saint-Augustin,0,FR,1554176538,81,44.83,-0.61,55.4,6.93
Santiago,0,CL,1554176756,63,-33.44,-70.65,75.0,3.36
Carnarvon,32,ZA,1554176316,72,-30.97,22.13,40.03,9.78
La Palma del Condado,40,ES,1554176780,100,37.38,-6.55,54.0,2.51
Royan,90,FR,1554176769,93,45.62,-1.03,53.6,4.7
Virginia Beach,20,US,1554176458,60,36.85,-75.98,42.01,5.82
Aklavik,75,CA,1554174000,78,68.22,-135.01,17.6,10.29
Burnie,12,AU,1554176645,52,-41.05,145.91,64.99,5.99
Gornoye Loo,90,RU,1554174000,87,43.72,39.61,44.6,6.71
Xuddur,0,SO,1554176788,80,4.12,43.89,70.54,11.45
Raudeberg,75,NO,1554176702,60,61.99,5.14,39.2,24.16
Lompoc,1,US,1554176217,87,34.64,-120.46,63.0,4.7
Deer Lake,75,CA,1554174000,74,49.18,-57.43,30.2,21.92
Bo Phloi,32,TH,1554176793,63,14.32,99.52,88.45,4.63
Yerbogachen,64,RU,1554176328,63,61.28,108.01,33.37,13.24
Reshetylivka,0,UA,1554176796,64,49.56,34.08,31.75,12.01
Victoria,75,BN,1554174000,74,5.28,115.24,87.8,3.36
Kardamaina,20,GR,1554175200,71,36.78,27.14,53.6,2.24
Yar-Sale,0,RU,1554176334,76,66.83,70.83,12.85,10.45
Cabo San Lucas,5,MX,1554176111,77,22.89,-109.91,73.0,11.41
Port-Gentil,64,GA,1554176802,95,-0.72,8.78,82.87,6.98
Mount Pleasant,1,US,1554176786,75,33.16,-94.97,46.4,3.74
Chuy,20,UY,1554176278,94,-33.69,-53.46,65.32,7.65
Tam Ky,40,VN,1554174000,69,15.57,108.48,82.4,2.24
Rorvik,68,NO,1554176702,74,64.86,11.24,37.99,5.01
Nicoya,0,CR,1554174000,58,10.15,-85.45,84.2,8.05
Minyar,92,RU,1554176810,99,55.07,57.55,33.91,3.18
Cairns,76,AU,1554176717,97,-16.92,145.77,77.0,1.01
Moron,88,VE,1554176754,94,10.49,-68.2,67.66,2.95
Klaksvik,56,FO,1554175200,100,62.23,-6.59,32.0,4.7
Carupano,0,VE,1554176815,84,10.67,-63.26,77.11,12.46
Port Lincoln,0,AU,1554176559,75,-34.72,135.86,71.8,11.68
Kerema,36,PG,1554176357,84,-7.96,145.78,82.15,3.51
Mandalgovi,36,MN,1554176534,74,45.76,106.27,43.27,4.74
Mountain Home,90,US,1554176814,50,43.13,-115.69,53.6,4.7
Tuy Hoa,44,VN,1554176821,79,13.08,109.3,82.51,4.63
Amapa,20,HN,1554174000,78,15.09,-87.97,77.0,5.82
Rawson,88,AR,1554176695,32,-43.3,-65.11,75.31,12.12
Nabire,12,ID,1554176510,68,-3.36,135.5,82.96,2.51
Hofn,56,IS,1554176440,100,64.25,-15.21,34.54,27.34
Kaitangata,92,NZ,1554176136,63,-46.28,169.85,55.99,13.0
Lagoa,0,PT,1554176528,87,37.14,-8.45,55.0,5.82
Les Cayes,56,HT,1554176829,100,18.19,-73.75,78.73,7.2
Natchez,90,US,1554176705,53,31.56,-91.4,50.0,4.7
Omboue,92,GA,1554176365,100,-1.57,9.26,84.04,6.98
Castro,90,CL,1554174000,100,-42.48,-73.76,51.8,5.53
Peniche,20,PT,1554176757,93,39.36,-9.38,53.01,3.36
Mae Ramat,0,TH,1554174000,48,16.98,98.52,84.2,2.24
Saldanha,32,PT,1554176470,88,41.42,-6.55,41.56,1.72
Chamrajnagar,0,IN,1554176838,65,11.92,76.95,77.47,1.95
Benguela,44,AO,1554176839,100,-12.58,13.4,80.44,3.85
Zhigansk,92,RU,1554176531,81,66.77,123.37,29.5,7.43
Naze,8,NG,1554176389,94,5.43,7.07,76.57,7.76
Faanui,88,PF,1554176192,100,-16.48,-151.75,85.21,5.97
Mount Isa,0,AU,1554174000,35,-20.73,139.49,86.0,10.29
Sao Raimundo das Mangabeiras,92,BR,1554176845,97,-7.02,-45.48,73.15,3.96
Timizart,92,DZ,1554176846,99,36.8,4.25,52.09,2.28
Bonavista,24,CA,1554176772,86,48.65,-53.11,34.0,21.0
Xiaolingwei,76,CN,1554176837,48,32.03,118.85,70.0,4.47
Emerald,75,AU,1554176395,39,-23.53,148.16,82.4,14.99
Changqing,0,CN,1554174000,36,31.81,117.24,62.6,8.95
Vardo,1,US,1554176224,40,39.62,-77.74,37.4,5.82
Norman Wells,75,CA,1554174000,73,65.28,-126.83,23.0,6.93
Kikwit,44,CD,1554176855,93,-5.04,18.82,72.43,2.73
Tortoli,75,IT,1554173700,93,39.93,9.66,51.8,6.93
Kirakira,44,SB,1554176857,100,-10.46,161.92,83.68,8.99
Piacabucu,92,BR,1554176428,94,-10.41,-36.43,76.57,3.18
Baijiantan,56,CN,1554176860,79,45.63,85.18,56.23,5.3
Mount Gambier,12,AU,1554174000,38,-37.83,140.78,73.4,16.11
Shahreza,0,IR,1554176862,46,32.01,51.87,26.26,4.07
Ostrovnoy,68,RU,1554176389,86,68.05,39.51,24.82,15.82
Paso de los Toros,48,UY,1554176865,71,-32.81,-56.52,72.16,11.12
Igarka,68,RU,1554176866,98,67.47,86.57,26.53,12.24
Choix,12,MX,1554176867,50,26.71,-108.33,64.69,1.72
Cabrobo,56,BR,1554176869,98,-8.51,-39.31,69.82,1.61
Pingxiang,44,CN,1554176870,94,27.63,113.85,60.64,3.4
Vestmannaeyjar,0,IS,1554176385,100,63.44,-20.27,30.94,19.51
Avera,90,US,1554176827,34,33.19,-82.53,55.4,9.17
Manitouwadge,36,CA,1554176874,73,49.12,-85.84,27.7,8.43
Bartlesville,1,US,1554176802,52,36.75,-95.98,46.4,5.82
Hlatikulu,92,SZ,1554176876,95,-26.97,31.33,58.84,2.73
Fortuna,0,ES,1554176439,93,38.18,-1.13,55.99,3.36
Maruoka,75,JP,1554174000,86,36.15,136.27,41.0,11.41
Muros,75,ES,1554176405,93,42.77,-9.06,54.0,5.82
Joshimath,0,IN,1554176881,89,30.57,79.57,8.71,1.05
Kurilsk,12,RU,1554176882,97,45.23,147.88,27.61,12.8
Harwich,1,US,1554176866,63,41.69,-70.08,39.0,11.23
Saint Pete Beach,40,US,1554176878,100,27.73,-82.74,68.0,5.82
Baiao,76,BR,1554176886,91,-2.79,-49.67,76.93,2.17
Komsomolskiy,80,RU,1554176718,93,67.55,63.78,25.63,17.27
Oranjemund,0,ZA,1554176889,90,-28.55,16.43,59.11,24.32
Salalah,40,OM,1554173400,78,17.01,54.1,75.2,4.7
Kukushtan,0,RU,1554174000,86,57.65,56.5,28.4,6.71
Labuhan,92,ID,1554176545,91,-2.54,115.51,78.19,3.06
Egvekinot,44,RU,1554176609,93,66.32,-179.17,30.94,3.18
Lander,1,US,1554175862,60,42.83,-108.73,39.2,4.7
The Valley,20,AI,1554175870,69,18.22,-63.06,78.8,10.29
Benito Juarez,0,MX,1554176856,43,28.64,-111.57,73.0,1.99
Samarai,88,PG,1554176898,100,-10.62,150.67,79.0,19.28
Cap Malheureux,40,MU,1554176641,94,-19.98,57.61,79.0,3.36
Hede,24,SE,1554176762,79,60.45,15.49,27.0,6.42
Dondo,0,MZ,1554176902,85,-19.62,34.74,71.17,2.95
Kaspiysk,75,RU,1554174000,87,42.88,47.64,44.6,11.18
Tyup,0,KG,1554176905,93,42.73,78.36,32.83,1.16
Junagadh,0,IN,1554176906,58,21.52,70.46,78.64,4.41
Tromso,90,NO,1554176471,100,69.65,18.96,32.0,20.8
Manakara,0,MG,1554176908,100,-22.14,48.01,73.87,2.73
Sydney,75,AU,1554176417,68,-33.85,151.22,73.99,4.7
Barcelona,0,ES,1554176675,71,41.38,2.18,55.99,4.7
Bani Walid,0,LY,1554176912,84,31.76,14.0,51.73,13.02
Ballina,68,IE,1554176292,82,54.11,-9.15,39.99,14.0
Bozhou,80,CN,1554176915,56,33.86,115.78,65.23,7.76
Cockburn Town,0,TC,1554176701,100,21.46,-71.14,77.56,14.25
Cidreira,8,BR,1554176772,84,-30.17,-50.22,72.43,11.45
Baykit,56,RU,1554176553,82,61.68,96.39,29.77,8.43
Mercedes,48,UY,1554176919,91,-33.25,-58.03,69.37,4.41
Policoro,75,IT,1554176405,81,40.21,16.68,54.0,8.05
La Tuque,76,CA,1554176379,66,47.44,-72.79,27.07,8.43
Srednekolymsk,80,RU,1554176557,78,67.46,153.71,19.96,3.18
San Cristobal,90,EC,1554176760,93,-0.39,-78.55,57.2,3.36
Port Keats,8,AU,1554176926,57,-14.25,129.55,89.53,13.91
Grindavik,75,IS,1554176215,79,63.84,-22.43,30.0,28.86
Sur,12,OM,1554176687,78,22.57,59.53,80.26,9.78
Cabedelo,0,BR,1554174000,94,-6.97,-34.84,75.2,2.24
Ulaangom,0,MN,1554176931,85,49.98,92.07,37.6,1.72
Acapulco,5,MX,1554173220,69,16.86,-99.88,80.6,8.05
Chokurdakh,20,RU,1554176346,91,70.62,147.9,9.43,13.35
Hami,12,CN,1554176934,49,42.84,93.51,63.43,8.77
Verkhneyarkeyevo,88,RU,1554176936,94,55.45,54.3,31.21,3.29
Polyarnyye Zori,64,RU,1554176937,82,67.37,32.5,24.37,4.74
Cervo,0,BR,1554176938,89,-22.19,-46.24,59.83,3.18
Paita,36,PE,1554176817,69,-5.09,-81.11,74.59,5.08
Campbellton,56,CA,1554176941,66,48.0,-66.68,27.34,12.46
Jucurutu,92,BR,1554176881,97,-6.03,-37.02,72.34,2.73
Dharchula,0,IN,1554176943,60,29.85,80.53,40.03,2.17
Gao,32,ML,1554176945,31,16.28,-0.04,81.88,9.22
Airai,24,TL,1554176360,73,-8.93,125.41,80.17,1.61
Nizhniy Kuranakh,0,RU,1554176947,56,58.84,125.49,31.57,3.74
Qostanay,0,KZ,1554174000,82,53.17,63.58,37.4,4.47
Otjiwarongo,0,NA,1554176949,83,-20.46,16.65,60.01,3.62
San Policarpo,92,PH,1554176461,94,12.18,125.51,78.91,13.91
Bemidji,1,US,1554176801,80,47.48,-94.89,30.99,8.05
Staryy Nadym,0,RU,1554176953,87,65.61,72.68,20.77,11.12
Guangyuan,92,CN,1554176889,75,32.43,105.86,66.99,3.18
Praia da Vitoria,75,PT,1554176719,82,38.73,-27.07,55.4,24.87
La Ronge,75,CA,1554174000,58,55.1,-105.3,26.6,19.46
Urucara,44,BR,1554176958,81,-2.54,-57.76,78.37,4.07
Ayan,48,TR,1554176464,82,40.67,33.6,23.83,2.28
Butterworth,75,MY,1554175800,66,5.4,100.37,87.8,1.12
Sehithwa,32,BW,1554176962,64,-20.47,22.7,69.19,11.34
Camocim,68,BR,1554176963,96,-2.9,-40.84,74.41,7.2
Harper,1,US,1554176854,57,30.3,-99.24,53.01,4.7
Garowe,80,SO,1554176479,91,8.41,48.48,66.31,4.18
Kamuli,8,UG,1554176967,94,0.94,33.12,65.32,2.95
Antofagasta,20,CL,1554174000,63,-23.65,-70.4,64.4,5.82
Dedovichi,0,RU,1554176969,84,57.55,29.95,21.22,3.62
Azanka,0,RU,1554176971,79,58.04,64.79,31.93,6.98
Singkang,75,MY,1554174000,70,2.1,102.8,87.8,3.36
Boituva,0,BR,1554176731,77,-23.29,-47.68,72.0,12.75
Dalvik,8,SE,1554175836,74,57.79,14.13,30.99,11.41
Auki,0,NG,1554176976,30,12.18,6.51,69.37,8.21
Sao Desiderio,80,BR,1554176977,89,-12.36,-44.97,71.98,4.74
Goderich,80,CA,1554176792,73,43.74,-81.71,36.0,5.01
Fuerte Olimpo,56,BR,1554176979,76,-21.04,-57.87,78.46,5.97
Wanning,0,AT,1554176928,56,48.64,13.53,41.0,6.93
Kaele,0,CM,1554176982,22,10.11,14.45,76.21,11.68
Richards Bay,92,ZA,1554176763,100,-28.77,32.06,63.97,11.45
Sterling,1,US,1554176967,80,39.0,-77.4,41.0,4.63
Khrebtovaya,80,RU,1554176985,62,56.71,104.25,31.66,7.99
Nuuk,92,GL,1554173400,92,64.17,-51.74,23.0,17.22
Mecca,0,SA,1554176988,55,21.43,39.83,48.31,2.95
Ahipara,68,NZ,1554176332,85,-35.17,173.16,67.39,15.7
Bathsheba,40,BB,1554174000,73,13.22,-59.52,77.0,16.11
Guarapari,40,BR,1554176953,94,-20.67,-40.5,73.99,3.36
Pacific Grove,20,US,1554176977,72,36.62,-121.92,61.0,6.93
Vestmanna,68,FO,1554175200,100,62.16,-7.17,32.0,4.7
Coromandel,0,NZ,1554176885,56,-36.76,175.5,73.0,18.34
Lavrentiya,48,RU,1554176762,100,65.58,-170.99,28.33,1.16
Tilichiki,92,RU,1554176567,93,60.47,166.1,34.72,11.9
Posse,44,BR,1554176999,65,-14.08,-46.36,76.3,5.86
San Diego de la Union,12,MX,1554177000,35,21.47,-100.87,58.93,3.96
Nome,1,US,1554176252,81,30.04,-94.42,50.0,3.36
Nanortalik,92,GL,1554176377,100,60.14,-45.24,26.8,29.57
Port Said,0,EG,1554177004,49,25.34,30.55,45.52,2.84
Elizabeth City,1,US,1554177004,65,36.3,-76.22,42.01,6.42
Letlhakane,8,BW,1554177006,59,-21.42,25.59,65.41,8.21
Verkhnevilyuysk,24,RU,1554177008,62,63.45,120.31,34.0,5.75
Phan Thiet,36,VN,1554176969,82,10.93,108.1,83.95,11.79
Lahaina,20,US,1554176981,69,20.87,-156.68,80.6,9.17
Sungaipenuh,0,ID,1554176874,73,-2.08,101.38,76.84,0.49
Kidal,0,ML,1554176892,33,18.44,1.41,76.21,11.23
Payo,12,ID,1554177014,99,-3.75,103.64,81.79,3.85
Sahuaripa,12,MX,1554177015,39,29.05,-109.23,61.99,3.18
Grand Gaube,40,MU,1554176942,94,-20.01,57.66,80.01,3.36
Mapimi,5,MX,1554176795,27,25.82,-103.85,73.4,4.7
Augusto Correa,92,BR,1554177019,96,-1.02,-46.63,75.04,2.95
Neiafu,40,TO,1554174000,65,-18.65,-173.98,82.4,8.05
Skelleftea,8,SE,1554176640,80,64.75,20.95,34.0,8.05
Barquisimeto,8,VE,1554176935,65,10.07,-69.32,72.07,7.76
Lodja,44,CD,1554177024,94,-3.52,23.6,71.89,2.28
Isiro,76,CD,1554177025,98,2.77,27.62,67.75,2.73
Biltine,0,TD,1554176549,28,14.53,20.93,68.83,10.67
Mponela,0,MW,1554174000,88,-13.53,33.74,64.4,4.7
Thenzawl,40,IN,1554174000,69,23.28,92.78,77.0,2.06
Mahbubabad,0,IN,1554177030,66,17.62,80.02,81.43,4.52
Ouidah,40,BJ,1554174000,83,6.37,2.09,84.2,9.17
Zaysan,12,KZ,1554177032,72,47.47,84.87,47.59,3.62
Maple Creek,76,CA,1554177033,48,49.91,-109.46,40.21,13.91
Skibbereen,20,IE,1554175800,86,51.55,-9.27,37.4,16.11
Gravdal,48,NO,1554177006,65,59.79,5.78,41.0,19.46
Puerto Leguizamo,76,CO,1554177037,83,-0.19,-74.78,78.46,3.62
Severodvinsk,40,RU,1554174000,68,64.56,39.82,24.8,6.71
Berdigestyakh,76,RU,1554177040,59,62.1,126.7,34.18,4.41
Ancud,90,CL,1554174000,100,-41.87,-73.83,51.8,5.41
Tarsus,75,TR,1554175200,100,36.92,34.88,52.0,2.24
Trincomalee,0,LK,1554177044,74,8.58,81.23,85.03,5.64
Rio Gallegos,90,AR,1554174000,100,-51.62,-69.22,51.8,2.24
Casa Nova,20,BR,1554177046,95,-11.77,-39.23,72.97,5.64
Port Blair,36,IN,1554176730,100,11.67,92.75,83.59,6.2
Severo-Kurilsk,76,RU,1554177048,96,50.68,156.12,31.03,8.77
Sioux Lookout,90,CA,1554175380,72,50.1,-91.92,32.0,11.41
Itoman,40,JP,1554176545,42,26.12,127.67,68.0,11.41
Inongo,12,CD,1554177052,90,-1.93,18.29,74.77,2.06
Molteno,0,ZA,1554177053,83,-31.4,26.36,32.11,4.18
Bara,0,NG,1554177055,26,10.41,10.6,73.69,9.22
Jawhar,0,IN,1554177056,73,19.91,73.23,73.69,4.63
Faya,20,SA,1554174000,87,18.39,42.45,59.0,10.29
Huescar,56,ES,1554177050,97,37.81,-2.54,48.99,2.39
Vuktyl,24,RU,1554177060,84,63.86,57.31,23.47,5.86
Grobina,0,LV,1554175200,86,56.54,21.17,30.2,2.24
Amazar,0,RU,1554176892,34,53.86,120.88,35.44,5.75
Baiyin,0,CN,1554174000,7,36.55,104.13,53.6,8.95
Vanimo,20,PG,1554177065,98,-2.67,141.3,83.68,16.71
Pemba,20,MZ,1554174000,94,-12.97,40.52,75.2,6.93
Kamyzyak,90,RU,1554174000,93,46.12,48.08,44.6,6.71
Biri,8,NO,1554177019,87,60.95,10.61,24.01,4.0
Desaguadero,92,PE,1554177070,98,-16.56,-69.04,43.9,3.18
Thunder Bay,90,CA,1554176791,59,48.41,-89.26,34.0,10.29
Pevek,0,RU,1554176650,79,69.7,170.27,29.68,17.16
Kayes,0,ML,1554177074,65,14.44,-11.44,75.94,3.29
Sinnamary,92,GF,1554176782,97,5.38,-52.96,79.63,11.23
Cerro de Pasco,64,PE,1554177076,100,-10.67,-76.25,41.92,0.38
Hualmay,44,PE,1554176338,93,-11.1,-77.61,65.5,5.19
Coahuayana,0,MX,1554176900,55,18.62,-100.35,62.35,2.17
Lamu,8,ID,1554177080,82,0.57,122.3,83.77,1.61
Nelson Bay,75,AU,1554176447,83,-32.72,152.14,73.0,5.82
Yaan,0,NG,1554177082,76,7.38,8.57,80.17,11.68
Moroceli,20,HN,1554174000,47,14.13,-86.87,75.2,4.7
Rondonopolis,36,BR,1554177085,83,-16.46,-54.64,74.23,2.73
Ternate,20,PH,1554176371,43,14.29,120.72,90.0,11.41
Kahului,40,US,1554176454,57,20.89,-156.47,81.0,11.41
Gat,0,SN,1554174000,53,14.69,-16.54,73.4,2.24
Ouahigouya,48,BF,1554177089,85,13.58,-2.42,72.61,3.06
Gazanjyk,0,TM,1554176575,91,39.24,55.52,47.86,8.55
Altay,0,CN,1554176928,70,47.83,88.13,38.77,3.06
Katsuura,75,JP,1554176055,37,33.93,134.5,52.0,13.87
Saint-Joseph,0,FR,1554177011,65,43.56,6.97,57.0,3.36
Cacule,48,BR,1554177095,94,-14.5,-42.22,68.29,5.3
Den Helder,90,NL,1554177096,75,52.96,4.76,48.2,4.7
Kayerkan,48,RU,1554177098,93,69.35,87.76,21.22,13.47
Upington,0,ZA,1554174000,26,-28.46,21.24,57.2,5.82
Voi,80,KE,1554177100,96,-3.4,38.57,69.01,2.28
Fereydun Kenar,68,IR,1554177102,100,36.69,52.52,43.54,4.29
Ulladulla,40,AU,1554175873,56,-35.36,150.48,71.6,12.75
Pontes e Lacerda,0,BR,1554177104,85,-15.23,-59.33,75.49,4.07
Tomatlan,0,MX,1554177106,88,19.93,-105.25,65.95,2.28
Warrington,75,GB,1554177071,93,53.39,-2.59,45.0,5.82
Hambantota,0,LK,1554174600,79,6.12,81.12,84.2,5.82
Massaguet,0,TD,1554174000,14,12.48,15.44,77.0,9.17
Arroyo,1,US,1554177092,54,41.39,-78.88,30.2,2.39
Kupang,75,ID,1554174000,70,-10.16,123.6,86.0,9.17
Buraydah,20,SA,1554174000,50,26.33,43.97,55.4,8.05
Ambon,90,FR,1554176901,93,47.55,-2.56,51.01,8.05
Vaitape,32,PF,1554177116,100,-16.52,-151.75,81.16,3.4
Wajima,75,JP,1554174000,86,37.4,136.9,37.4,11.41
Coquimbo,90,CL,1554174000,87,-29.95,-71.34,59.0,3.36
Iskateley,44,RU,1554177119,91,67.68,53.15,28.33,18.39
Limulunga,0,ZM,1554177121,68,-15.13,23.15,63.34,2.84
Kamareddi,0,IN,1554177122,47,18.32,78.34,82.78,6.87
El Real de Santa Maria,100,PA,1554177123,95,8.11,-77.73,77.29,2.95
Neuquen,0,AR,1554174000,48,-38.95,-68.06,66.2,5.82
Sayyan,0,YE,1554177126,85,15.17,44.32,43.09,1.16
Mettmann,0,DE,1554177127,61,51.25,6.98,48.2,10.29
Kamaishi,75,JP,1554174000,69,39.28,141.86,39.2,5.82
Arosa,20,CH,1554177129,80,46.78,9.68,46.0,1.61
Dunedin,44,NZ,1554176917,73,-45.87,170.5,53.01,10.0
Jumla,0,NP,1554177104,81,29.28,82.18,31.93,1.83
